<?xml version="1.0" encoding="UTF-8"?>
<kml xmlns="http://www.opengis.net/kml/2.2"><Document><ExtendedData><Data name="creator"><value><![CDATA[Yandex Map Constructor]]></value></Data></ExtendedData><name><![CDATA[Лето-v-3]]></name><description><![CDATA[!!! - https://progorodsamara.ru/news/view/224210<br/><br/><br/>https://tur-ray.ru/samarskaya-oblast-dostoprimechatelnosti.html<br/>https://xn------6cdbbiredae5d0a0ajdn1axlccge2dg1oyai.xn--p1ai/1621-kuda-sezdit-v-samarskoy-oblasti-na-avtomobile-interesnye-krasivye-mesta-dlya-otdyha-i-puteshestviy.html<br/>https://drugoigorod.ru/trip-without-car/<br/>https://drugoigorod.ru/seven-routes-for-traveling-in-autumn/<br/>https://www.tourister.ru/world/europe/russia/region/samarskaya_oblast/tips/8663]]></description><Folder><Placemark><name><![CDATA[Пляж Чайное озеро]]></name><description/><Style><IconStyle><color>ff1e93ff</color><Icon><href>https://api-maps.yandex.ru/i/0.4/micro/pmors.png</href></Icon><hotSpot x="7" y="28" xunits="pixels" yunits="insetPixels"/></IconStyle></Style><Point><coordinates>48.12356546675114,53.4521877440078</coordinates></Point></Placemark><Placemark><name><![CDATA[Семь ключей]]></name><description/><Style><IconStyle><color>ff1e93ff</color><Icon><href>https://api-maps.yandex.ru/i/0.4/micro/pmors.png</href></Icon><hotSpot x="7" y="28" xunits="pixels" yunits="insetPixels"/></IconStyle></Style><Point><coordinates>48.109223758999676,53.44863057283016</coordinates></Point></Placemark><Placemark><name><![CDATA[Ладья]]></name><description/><Style><IconStyle><color>ff1e93ff</color><Icon><href>https://api-maps.yandex.ru/i/0.4/micro/pmors.png</href></Icon><hotSpot x="7" y="28" xunits="pixels" yunits="insetPixels"/></IconStyle></Style><Point><coordinates>48.10934177619638,53.45661655268637</coordinates></Point></Placemark><Placemark><name><![CDATA[Мызыкальный камень]]></name><description/><Style><IconStyle><color>ff1e93ff</color><Icon><href>https://api-maps.yandex.ru/i/0.4/micro/pmors.png</href></Icon><hotSpot x="7" y="28" xunits="pixels" yunits="insetPixels"/></IconStyle></Style><Point><coordinates>48.10826889259044,53.45744900584793</coordinates></Point></Placemark><Placemark><name><![CDATA[(Д) Смолькино Эко-Вилладж]]></name><description><![CDATA[https://campglamp.ru/catalog/glemping-smolkino-eko-villadzh-263]]></description><Style><IconStyle><color>ff03ad1b</color><Icon><href>https://api-maps.yandex.ru/i/0.4/micro/pmgns.png</href></Icon><hotSpot x="7" y="28" xunits="pixels" yunits="insetPixels"/></IconStyle></Style><Point><coordinates>48.120949784221374,53.451789601656515</coordinates></Point></Placemark><Placemark><name><![CDATA[Сокские штольни??]]></name><description><![CDATA[Природа; </br><br/>Самара, Красноглинский район]]></description><Style><IconStyle><color>ff1e93ff</color><Icon><href>https://api-maps.yandex.ru/i/0.4/micro/pmors.png</href></Icon><hotSpot x="7" y="28" xunits="pixels" yunits="insetPixels"/></IconStyle></Style><Point><coordinates>50.149215,53.414707</coordinates></Point></Placemark><Placemark><name><![CDATA[День-1]]></name><description/><Style><IconStyle><color>ffff981e</color><Icon><href>https://api-maps.yandex.ru/i/0.4/micro/pmbls.png</href></Icon><hotSpot x="7" y="28" xunits="pixels" yunits="insetPixels"/></IconStyle></Style><Point><coordinates>48.120663316594154,53.451520621242146</coordinates></Point></Placemark><Placemark><name><![CDATA[Глэмпинг Alpen Camp]]></name><description><![CDATA[Кемпинг: Полевая ул., 31, посёлок Передовой, Россия]]></description><Style><IconStyle><color>ff03ad1b</color><Icon><href>https://api-maps.yandex.ru/i/0.4/micro/pmgns.png</href></Icon><hotSpot x="7" y="28" xunits="pixels" yunits="insetPixels"/></IconStyle></Style><Point><coordinates>48.30493,53.383731</coordinates></Point></Placemark><Placemark><name><![CDATA[Рачейские скалы]]></name><description/><Style><IconStyle><color>ff1e93ff</color><Icon><href>https://api-maps.yandex.ru/i/0.4/micro/pmors.png</href></Icon><hotSpot x="7" y="28" xunits="pixels" yunits="insetPixels"/></IconStyle></Style><Point><coordinates>48.140313179839886,53.43142389015859</coordinates></Point></Placemark><Placemark><name><![CDATA[Рачейский лабиринт]]></name><description/><Style><IconStyle><color>ff1e93ff</color><Icon><href>https://api-maps.yandex.ru/i/0.4/micro/pmors.png</href></Icon><hotSpot x="7" y="28" xunits="pixels" yunits="insetPixels"/></IconStyle></Style><Point><coordinates>48.138424904693395,53.43742075907179</coordinates></Point></Placemark><Placemark><name><![CDATA[Камень сыр]]></name><description/><Style><IconStyle><color>ff1e93ff</color><Icon><href>https://api-maps.yandex.ru/i/0.4/micro/pmors.png</href></Icon><hotSpot x="7" y="28" xunits="pixels" yunits="insetPixels"/></IconStyle></Style><Point><coordinates>48.15883651529681,53.44691246098672</coordinates></Point></Placemark><Placemark><name><![CDATA[Малосинские дубравы]]></name><description/><Style><IconStyle><color>ff1e93ff</color><Icon><href>https://api-maps.yandex.ru/i/0.4/micro/pmors.png</href></Icon><hotSpot x="7" y="28" xunits="pixels" yunits="insetPixels"/></IconStyle></Style><Point><coordinates>48.167548330177176,53.44649613268267</coordinates></Point></Placemark><Placemark><name><![CDATA[Смотровая площадка]]></name><description/><Style><IconStyle><color>ff1e93ff</color><Icon><href>https://api-maps.yandex.ru/i/0.4/micro/pmors.png</href></Icon><hotSpot x="7" y="28" xunits="pixels" yunits="insetPixels"/></IconStyle></Style><Point><coordinates>48.15899208341968,53.44756897034979</coordinates></Point></Placemark><Placemark><name><![CDATA[Камень кобра]]></name><description/><Style><IconStyle><color>ff1e93ff</color><Icon><href>https://api-maps.yandex.ru/i/0.4/micro/pmors.png</href></Icon><hotSpot x="7" y="28" xunits="pixels" yunits="insetPixels"/></IconStyle></Style><Point><coordinates>48.1567604855193,53.44791483459964</coordinates></Point></Placemark><Placemark><name><![CDATA[Гора Мыслитель]]></name><description/><Style><IconStyle><color>ff1e93ff</color><Icon><href>https://api-maps.yandex.ru/i/0.4/micro/pmors.png</href></Icon><hotSpot x="7" y="28" xunits="pixels" yunits="insetPixels"/></IconStyle></Style><Point><coordinates>48.157650978912244,53.44682599314282</coordinates></Point></Placemark><Placemark><name><![CDATA[Качели]]></name><description/><Style><IconStyle><color>ff1e93ff</color><Icon><href>https://api-maps.yandex.ru/i/0.4/micro/pmors.png</href></Icon><hotSpot x="7" y="28" xunits="pixels" yunits="insetPixels"/></IconStyle></Style><Point><coordinates>48.15917983805073,53.44770667589832</coordinates></Point></Placemark><Placemark><name><![CDATA[Ацкель Пуцкель]]></name><description/><Style><IconStyle><color>ff1e93ff</color><Icon><href>https://api-maps.yandex.ru/i/0.4/micro/pmors.png</href></Icon><hotSpot x="7" y="28" xunits="pixels" yunits="insetPixels"/></IconStyle></Style><Point><coordinates>48.16684022699726,53.44462260462277</coordinates></Point></Placemark><Placemark><name><![CDATA[Грот Черепашка??]]></name><description/><Style><IconStyle><color>ff1e93ff</color><Icon><href>https://api-maps.yandex.ru/i/0.4/micro/pmors.png</href></Icon><hotSpot x="7" y="28" xunits="pixels" yunits="insetPixels"/></IconStyle></Style><Point><coordinates>48.1647401,53.4455596</coordinates></Point></Placemark><Placemark><name><![CDATA[Мемориал ВОВ]]></name><description/><Style><IconStyle><color>ff1e93ff</color><Icon><href>https://api-maps.yandex.ru/i/0.4/micro/pmors.png</href></Icon><hotSpot x="7" y="28" xunits="pixels" yunits="insetPixels"/></IconStyle></Style><Point><coordinates>48.126513278309666,53.448781084402775</coordinates></Point></Placemark><Placemark><name><![CDATA[День-2]]></name><description/><Style><IconStyle><color>ffff981e</color><Icon><href>https://api-maps.yandex.ru/i/0.4/micro/pmbls.png</href></Icon><hotSpot x="7" y="28" xunits="pixels" yunits="insetPixels"/></IconStyle></Style><Point><coordinates>48.15869704042752,53.446749132593254</coordinates></Point></Placemark><Placemark><name><![CDATA[Мелодия Жигулей]]></name><description><![CDATA[https://melodiyazhigulei.ru/]]></description><Style><IconStyle><color>ff03ad1b</color><Icon><href>https://api-maps.yandex.ru/i/0.4/micro/pmgns.png</href></Icon><hotSpot x="7" y="28" xunits="pixels" yunits="insetPixels"/></IconStyle></Style><Point><coordinates>49.303498759361325,53.37463644633478</coordinates></Point></Placemark><Placemark><name><![CDATA[Магазин Белый пеликан]]></name><description/><Style><IconStyle><color>ffff1eb5</color><Icon><href>https://api-maps.yandex.ru/i/0.4/micro/pmvvs.png</href></Icon><hotSpot x="7" y="28" xunits="pixels" yunits="insetPixels"/></IconStyle></Style><Point><coordinates>49.302388324827824,53.355321874810976</coordinates></Point></Placemark><Placemark><name><![CDATA[Парк усадьбы Орловых]]></name><description><![CDATA[Россия, Самарская область, Шигонский район, село Усолье, парк усадьбы Орловых]]></description><Style><IconStyle><color>ff1e93ff</color><Icon><href>https://api-maps.yandex.ru/i/0.4/micro/pmors.png</href></Icon><hotSpot x="7" y="28" xunits="pixels" yunits="insetPixels"/></IconStyle></Style><Point><coordinates>49.075184,53.392918</coordinates></Point></Placemark><Placemark><name><![CDATA[Грот Каменная изба]]></name><description/><Style><IconStyle><color>ff1e93ff</color><Icon><href>https://api-maps.yandex.ru/i/0.4/micro/pmors.png</href></Icon><hotSpot x="7" y="28" xunits="pixels" yunits="insetPixels"/></IconStyle></Style><Point><coordinates>48.29071272859288,53.442296012282476</coordinates></Point></Placemark><Placemark><name><![CDATA[Троицкая церковь]]></name><description/><Style><IconStyle><color>ff1e93ff</color><Icon><href>https://api-maps.yandex.ru/i/0.4/micro/pmors.png</href></Icon><hotSpot x="7" y="28" xunits="pixels" yunits="insetPixels"/></IconStyle></Style><Point><coordinates>48.39066256532394,53.37164605544041</coordinates></Point></Placemark><Placemark><name><![CDATA[Троицкое озеро]]></name><description/><Style><IconStyle><color>ff1e93ff</color><Icon><href>https://api-maps.yandex.ru/i/0.4/micro/pmors.png</href></Icon><hotSpot x="7" y="28" xunits="pixels" yunits="insetPixels"/></IconStyle></Style><Point><coordinates>48.370728387925304,53.3828219797395</coordinates></Point></Placemark><Placemark><name><![CDATA[Чертов палец]]></name><description/><Style><IconStyle><color>ff1e93ff</color><Icon><href>https://api-maps.yandex.ru/i/0.4/micro/pmors.png</href></Icon><hotSpot x="7" y="28" xunits="pixels" yunits="insetPixels"/></IconStyle></Style><Point><coordinates>48.28772094696025,53.38458413150921</coordinates></Point></Placemark><Placemark><name><![CDATA[Девечьи слезы]]></name><description/><Style><IconStyle><color>ff1e93ff</color><Icon><href>https://api-maps.yandex.ru/i/0.4/micro/pmors.png</href></Icon><hotSpot x="7" y="28" xunits="pixels" yunits="insetPixels"/></IconStyle></Style><Point><coordinates>48.26343086212093,53.393911330476016</coordinates></Point></Placemark><Placemark><name><![CDATA[Шунгутский]]></name><description/><Style><IconStyle><color>ff1e93ff</color><Icon><href>https://api-maps.yandex.ru/i/0.4/micro/pmors.png</href></Icon><hotSpot x="7" y="28" xunits="pixels" yunits="insetPixels"/></IconStyle></Style><Point><coordinates>48.259923651310885,53.39593645865774</coordinates></Point></Placemark><Placemark><name><![CDATA[Мужские слезы]]></name><description/><Style><IconStyle><color>ff1e93ff</color><Icon><href>https://api-maps.yandex.ru/i/0.4/micro/pmors.png</href></Icon><hotSpot x="7" y="28" xunits="pixels" yunits="insetPixels"/></IconStyle></Style><Point><coordinates>48.26537926444709,53.393671097820544</coordinates></Point></Placemark><Placemark><name><![CDATA[День-3]]></name><description/><Style><IconStyle><color>ffff981e</color><Icon><href>https://api-maps.yandex.ru/i/0.4/micro/pmbls.png</href></Icon><hotSpot x="7" y="28" xunits="pixels" yunits="insetPixels"/></IconStyle></Style><Point><coordinates>48.304874792191754,53.383732860907</coordinates></Point></Placemark><Placemark><name><![CDATA[Альпина]]></name><description/><Style><IconStyle><color>ff03ad1b</color><Icon><href>https://api-maps.yandex.ru/i/0.4/micro/pmgns.png</href></Icon><hotSpot x="7" y="28" xunits="pixels" yunits="insetPixels"/></IconStyle></Style><Point><coordinates>49.48048163899768,53.40089526489195</coordinates></Point></Placemark><Placemark><name><![CDATA[Вкусно — и точка]]></name><description><![CDATA[Быстрое питание; </br><br/>Московское ш., 18, Жигулёвск, Россия]]></description><Style><IconStyle><color>ffff1eb5</color><Icon><href>https://api-maps.yandex.ru/i/0.4/micro/pmvvs.png</href></Icon><hotSpot x="7" y="28" xunits="pixels" yunits="insetPixels"/></IconStyle></Style><Point><coordinates>49.474025,53.406353</coordinates></Point></Placemark><Placemark><name><![CDATA[Национальный парк]]></name><description/><Style><IconStyle><color>ff1e93ff</color><Icon><href>https://api-maps.yandex.ru/i/0.4/micro/pmors.png</href></Icon><hotSpot x="7" y="28" xunits="pixels" yunits="insetPixels"/></IconStyle></Style><Point><coordinates>49.32591666230651,53.35482119866751</coordinates></Point></Placemark><Placemark><name><![CDATA[Дом купца?]]></name><description/><Style><IconStyle><color>ff1e93ff</color><Icon><href>https://api-maps.yandex.ru/i/0.4/micro/pmors.png</href></Icon><hotSpot x="7" y="28" xunits="pixels" yunits="insetPixels"/></IconStyle></Style><Point><coordinates>49.29795731553522,53.35482761762486</coordinates></Point></Placemark><Placemark><name><![CDATA[Церковь?]]></name><description/><Style><IconStyle><color>ff1e93ff</color><Icon><href>https://api-maps.yandex.ru/i/0.4/micro/pmors.png</href></Icon><hotSpot x="7" y="28" xunits="pixels" yunits="insetPixels"/></IconStyle></Style><Point><coordinates>49.30260290154904,53.353877600626866</coordinates></Point></Placemark><Placemark><name><![CDATA[Конюшня графа?]]></name><description/><Style><IconStyle><color>ff1e93ff</color><Icon><href>https://api-maps.yandex.ru/i/0.4/micro/pmors.png</href></Icon><hotSpot x="7" y="28" xunits="pixels" yunits="insetPixels"/></IconStyle></Style><Point><coordinates>49.29853667268243,53.35399314436673</coordinates></Point></Placemark><Placemark><name><![CDATA[Лепешка]]></name><description/><Style><IconStyle><color>ff1e93ff</color><Icon><href>https://api-maps.yandex.ru/i/0.4/micro/pmors.png</href></Icon><hotSpot x="7" y="28" xunits="pixels" yunits="insetPixels"/></IconStyle></Style><Point><coordinates>49.26766096858902,53.39452955969377</coordinates></Point></Placemark><Placemark><name><![CDATA[Пляж??]]></name><description/><Style><IconStyle><color>ff1e93ff</color><Icon><href>https://api-maps.yandex.ru/i/0.4/micro/pmors.png</href></Icon><hotSpot x="7" y="28" xunits="pixels" yunits="insetPixels"/></IconStyle></Style><Point><coordinates>49.27549301891255,53.393381625644544</coordinates></Point></Placemark><Placemark><name><![CDATA[Пляж]]></name><description/><Style><IconStyle><color>ff1e93ff</color><Icon><href>https://api-maps.yandex.ru/i/0.4/micro/pmors.png</href></Icon><hotSpot x="7" y="28" xunits="pixels" yunits="insetPixels"/></IconStyle></Style><Point><coordinates>49.26451553353795,53.3912588276194</coordinates></Point></Placemark><Placemark><name><![CDATA[Конный клуб?]]></name><description/><Style><IconStyle><color>ff1e93ff</color><Icon><href>https://api-maps.yandex.ru/i/0.4/micro/pmors.png</href></Icon><hotSpot x="7" y="28" xunits="pixels" yunits="insetPixels"/></IconStyle></Style><Point><coordinates>49.28324808129748,53.3563488843036</coordinates></Point></Placemark><Placemark><name><![CDATA[Пляж, заехать??]]></name><description/><Style><IconStyle><color>ff1e93ff</color><Icon><href>https://api-maps.yandex.ru/i/0.4/micro/pmors.png</href></Icon><hotSpot x="7" y="28" xunits="pixels" yunits="insetPixels"/></IconStyle></Style><Point><coordinates>49.30091805195556,53.394521249654936</coordinates></Point></Placemark><Placemark><name><![CDATA[Музей уфологии]]></name><description/><Style><IconStyle><color>ff1e93ff</color><Icon><href>https://api-maps.yandex.ru/i/0.4/micro/pmors.png</href></Icon><hotSpot x="7" y="28" xunits="pixels" yunits="insetPixels"/></IconStyle></Style><Point><coordinates>49.29766763696154,53.35230489056328</coordinates></Point></Placemark><Placemark><name><![CDATA[Погибшим туристам]]></name><description/><Style><IconStyle><color>ff1e93ff</color><Icon><href>https://api-maps.yandex.ru/i/0.4/micro/pmors.png</href></Icon><hotSpot x="7" y="28" xunits="pixels" yunits="insetPixels"/></IconStyle></Style><Point><coordinates>49.296821944999145,53.40057013025043</coordinates></Point></Placemark><Placemark><name><![CDATA[Паровая мельница]]></name><description/><Style><IconStyle><color>ff1e93ff</color><Icon><href>https://api-maps.yandex.ru/i/0.4/micro/pmors.png</href></Icon><hotSpot x="7" y="28" xunits="pixels" yunits="insetPixels"/></IconStyle></Style><Point><coordinates>49.30098284730399,53.35269004944516</coordinates></Point></Placemark><Placemark><name><![CDATA[Богатырская слобода]]></name><description><![CDATA[Культурный центр; </br><br/>Самарская область, Ставропольский район, село Жигули]]></description><Style><IconStyle><color>ff1e93ff</color><Icon><href>https://api-maps.yandex.ru/i/0.4/micro/pmors.png</href></Icon><hotSpot x="7" y="28" xunits="pixels" yunits="insetPixels"/></IconStyle></Style><Point><coordinates>49.246646,53.338417</coordinates></Point></Placemark><Placemark><name><![CDATA[Конный клуб?]]></name><description/><Style><IconStyle><color>ff1e93ff</color><Icon><href>https://api-maps.yandex.ru/i/0.4/micro/pmors.png</href></Icon><hotSpot x="7" y="28" xunits="pixels" yunits="insetPixels"/></IconStyle></Style><Point><coordinates>49.24663527116385,53.33937378451001</coordinates></Point></Placemark><Placemark><name><![CDATA[Трапезная?]]></name><description/><Style><IconStyle><color>ffff1eb5</color><Icon><href>https://api-maps.yandex.ru/i/0.4/micro/pmvvs.png</href></Icon><hotSpot x="7" y="28" xunits="pixels" yunits="insetPixels"/></IconStyle></Style><Point><coordinates>49.24751569280054,53.338304624543845</coordinates></Point></Placemark><Placemark><name><![CDATA[Пристань]]></name><description/><Style><IconStyle><color>ff1e93ff</color><Icon><href>https://api-maps.yandex.ru/i/0.4/micro/pmors.png</href></Icon><hotSpot x="7" y="28" xunits="pixels" yunits="insetPixels"/></IconStyle></Style><Point><coordinates>49.24604584226039,53.336635011582054</coordinates></Point></Placemark><Placemark><name><![CDATA[Молодецкий курган]]></name><description><![CDATA[Достопримечательность; </br><br/>Самарская область, Ставропольский район, улица Молодецкий Курган]]></description><Style><IconStyle><color>ff1e93ff</color><Icon><href>https://api-maps.yandex.ru/i/0.4/micro/pmors.png</href></Icon><hotSpot x="7" y="28" xunits="pixels" yunits="insetPixels"/></IconStyle></Style><Point><coordinates>49.310925,53.406472</coordinates></Point></Placemark><Placemark><name><![CDATA[Коса какая-то?]]></name><description/><Style><IconStyle><color>ff1e93ff</color><Icon><href>https://api-maps.yandex.ru/i/0.4/micro/pmors.png</href></Icon><hotSpot x="7" y="28" xunits="pixels" yunits="insetPixels"/></IconStyle></Style><Point><coordinates>49.29524292001351,53.399649692260795</coordinates></Point></Placemark><Placemark><name><![CDATA[Пристань какая-то?]]></name><description/><Style><IconStyle><color>ff1e93ff</color><Icon><href>https://api-maps.yandex.ru/i/0.4/micro/pmors.png</href></Icon><hotSpot x="7" y="28" xunits="pixels" yunits="insetPixels"/></IconStyle></Style><Point><coordinates>49.2968951607666,53.39958557037057</coordinates></Point></Placemark><Placemark><name><![CDATA[Девья горя]]></name><description/><Style><IconStyle><color>ff1e93ff</color><Icon><href>https://api-maps.yandex.ru/i/0.4/micro/pmors.png</href></Icon><hotSpot x="7" y="28" xunits="pixels" yunits="insetPixels"/></IconStyle></Style><Point><coordinates>49.2981308629984,53.40144857034553</coordinates></Point></Placemark><Placemark><name><![CDATA[Парковка перед молодецким курганом]]></name><description/><Style><IconStyle><color>ff1e93ff</color><Icon><href>https://api-maps.yandex.ru/i/0.4/micro/pmors.png</href></Icon><hotSpot x="7" y="28" xunits="pixels" yunits="insetPixels"/></IconStyle></Style><Point><coordinates>49.3016480351411,53.39516247971437</coordinates></Point></Placemark><Placemark><name><![CDATA[День-4]]></name><description/><Style><IconStyle><color>ffff981e</color><Icon><href>https://api-maps.yandex.ru/i/0.4/micro/pmbls.png</href></Icon><hotSpot x="7" y="28" xunits="pixels" yunits="insetPixels"/></IconStyle></Style><Point><coordinates>49.31154538640484,53.40638998278304</coordinates></Point></Placemark><Placemark><name><![CDATA[Гостевой дом Василиса]]></name><description><![CDATA[https://vk.com/guesthousevasilisa<br/>]]></description><Style><IconStyle><color>ff03ad1b</color><Icon><href>https://api-maps.yandex.ru/i/0.4/micro/pmgns.png</href></Icon><hotSpot x="7" y="28" xunits="pixels" yunits="insetPixels"/></IconStyle></Style><Point><coordinates>50.00795413502879,53.41740106538398</coordinates></Point></Placemark><Placemark><name><![CDATA[Гора Стрельная]]></name><description><![CDATA[Смотровая площадка; </br><br/>Самарская область, Ставропольский район, Жигулёвский государственный природный биосферный заповедник имени И.И. Спрыгина]]></description><Style><IconStyle><color>ff1e93ff</color><Icon><href>https://api-maps.yandex.ru/i/0.4/micro/pmors.png</href></Icon><hotSpot x="7" y="28" xunits="pixels" yunits="insetPixels"/></IconStyle></Style><Point><coordinates>49.757274,53.435126</coordinates></Point></Placemark><Placemark><name><![CDATA[КПП стрельная гора]]></name><description><![CDATA[Россия, Самарская область, Ставропольский район, Жигулёвский государственный природный биосферный заповедник имени И.И. Спрыгина]]></description><Style><IconStyle><color>ff1e93ff</color><Icon><href>https://api-maps.yandex.ru/i/0.4/micro/pmors.png</href></Icon><hotSpot x="7" y="28" xunits="pixels" yunits="insetPixels"/></IconStyle></Style><Point><coordinates>49.763312,53.432888</coordinates></Point></Placemark><Placemark><name><![CDATA[Каменная чаша]]></name><description><![CDATA[Россия, Самарская область, Ставропольский район, Каменный овраг]]></description><Style><IconStyle><color>ff1e93ff</color><Icon><href>https://api-maps.yandex.ru/i/0.4/micro/pmors.png</href></Icon><hotSpot x="7" y="28" xunits="pixels" yunits="insetPixels"/></IconStyle></Style><Point><coordinates>49.921581,53.406835</coordinates></Point></Placemark><Placemark><name><![CDATA[Ширяевские штольни]]></name><description/><Style><IconStyle><color>ff1e93ff</color><Icon><href>https://api-maps.yandex.ru/i/0.4/micro/pmors.png</href></Icon><hotSpot x="7" y="28" xunits="pixels" yunits="insetPixels"/></IconStyle></Style><Point><coordinates>50.00586673608298,53.41878358397241</coordinates></Point></Placemark><Placemark><name><![CDATA[Крест на горе]]></name><description/><Style><IconStyle><color>ff1e93ff</color><Icon><href>https://api-maps.yandex.ru/i/0.4/micro/pmors.png</href></Icon><hotSpot x="7" y="28" xunits="pixels" yunits="insetPixels"/></IconStyle></Style><Point><coordinates>50.02456237325017,53.415734565555184</coordinates></Point></Placemark><Placemark><name><![CDATA[Памятник Древний войн]]></name><description/><Style><IconStyle><color>ff1e93ff</color><Icon><href>https://api-maps.yandex.ru/i/0.4/micro/pmors.png</href></Icon><hotSpot x="7" y="28" xunits="pixels" yunits="insetPixels"/></IconStyle></Style><Point><coordinates>50.00710119256274,53.421919514258406</coordinates></Point></Placemark><Placemark><name><![CDATA[Штольни?]]></name><description/><Style><IconStyle><color>ff1e93ff</color><Icon><href>https://api-maps.yandex.ru/i/0.4/micro/pmors.png</href></Icon><hotSpot x="7" y="28" xunits="pixels" yunits="insetPixels"/></IconStyle></Style><Point><coordinates>50.006918802349645,53.425972889235325</coordinates></Point></Placemark><Placemark><name><![CDATA[Памятник Булгарское наследие]]></name><description/><Style><IconStyle><color>ff1e93ff</color><Icon><href>https://api-maps.yandex.ru/i/0.4/micro/pmors.png</href></Icon><hotSpot x="7" y="28" xunits="pixels" yunits="insetPixels"/></IconStyle></Style><Point><coordinates>50.01103331097848,53.42403436703876</coordinates></Point></Placemark><Placemark><name><![CDATA[Памятник Волжское лесничество]]></name><description/><Style><IconStyle><color>ff1e93ff</color><Icon><href>https://api-maps.yandex.ru/i/0.4/micro/pmors.png</href></Icon><hotSpot x="7" y="28" xunits="pixels" yunits="insetPixels"/></IconStyle></Style><Point><coordinates>50.01261581429729,53.42359858783985</coordinates></Point></Placemark><Placemark><name><![CDATA[Кафе у танечки]]></name><description/><Style><IconStyle><color>ffff1eb5</color><Icon><href>https://api-maps.yandex.ru/i/0.4/micro/pmvvs.png</href></Icon><hotSpot x="7" y="28" xunits="pixels" yunits="insetPixels"/></IconStyle></Style><Point><coordinates>50.020324483005346,53.41564482886097</coordinates></Point></Placemark><Placemark><name><![CDATA[Жигулевская вольница]]></name><description/><Style><IconStyle><color>ffff1eb5</color><Icon><href>https://api-maps.yandex.ru/i/0.4/micro/pmvvs.png</href></Icon><hotSpot x="7" y="28" xunits="pixels" yunits="insetPixels"/></IconStyle></Style><Point><coordinates>50.01415540227143,53.4232781590127</coordinates></Point></Placemark><Placemark><name><![CDATA[Музей Ширяевца]]></name><description/><Style><IconStyle><color>ff1e93ff</color><Icon><href>https://api-maps.yandex.ru/i/0.4/micro/pmors.png</href></Icon><hotSpot x="7" y="28" xunits="pixels" yunits="insetPixels"/></IconStyle></Style><Point><coordinates>50.02125789174377,53.41834965935172</coordinates></Point></Placemark><Placemark><name><![CDATA[Памятник горнякам]]></name><description/><Style><IconStyle><color>ff1e93ff</color><Icon><href>https://api-maps.yandex.ru/i/0.4/micro/pmors.png</href></Icon><hotSpot x="7" y="28" xunits="pixels" yunits="insetPixels"/></IconStyle></Style><Point><coordinates>50.01015891083968,53.423736371449635</coordinates></Point></Placemark><Placemark><name><![CDATA[Грот на горе]]></name><description/><Style><IconStyle><color>ff1e93ff</color><Icon><href>https://api-maps.yandex.ru/i/0.4/micro/pmors.png</href></Icon><hotSpot x="7" y="28" xunits="pixels" yunits="insetPixels"/></IconStyle></Style><Point><coordinates>50.07307280549285,53.40884353233773</coordinates></Point></Placemark><Placemark><name><![CDATA[Штольни?]]></name><description/><Style><IconStyle><color>ff1e93ff</color><Icon><href>https://api-maps.yandex.ru/i/0.4/micro/pmors.png</href></Icon><hotSpot x="7" y="28" xunits="pixels" yunits="insetPixels"/></IconStyle></Style><Point><coordinates>50.07182826050991,53.40999264997942</coordinates></Point></Placemark><Placemark><name><![CDATA[Гора Верблюд]]></name><description/><Style><IconStyle><color>ff1e93ff</color><Icon><href>https://api-maps.yandex.ru/i/0.4/micro/pmors.png</href></Icon><hotSpot x="7" y="28" xunits="pixels" yunits="insetPixels"/></IconStyle></Style><Point><coordinates>50.07312580934059,53.40892496343685</coordinates></Point></Placemark><Placemark><name><![CDATA[Парковка?]]></name><description/><Style><IconStyle><color>ff1e93ff</color><Icon><href>https://api-maps.yandex.ru/i/0.4/micro/pmors.png</href></Icon><hotSpot x="7" y="28" xunits="pixels" yunits="insetPixels"/></IconStyle></Style><Point><coordinates>50.07476259717218,53.40898456936935</coordinates></Point></Placemark><Placemark><name><![CDATA[День-5]]></name><description/><Style><IconStyle><color>ffff981e</color><Icon><href>https://api-maps.yandex.ru/i/0.4/micro/pmbls.png</href></Icon><hotSpot x="7" y="28" xunits="pixels" yunits="insetPixels"/></IconStyle></Style><Point><coordinates>49.63615705022183,53.399369184047885</coordinates></Point></Placemark><Placemark><name><![CDATA[Водопад под сырейкой]]></name><description><![CDATA[Россия, Самарская область, Кинельский район]]></description><Style><IconStyle><color>ff1e93ff</color><Icon><href>https://api-maps.yandex.ru/i/0.4/micro/pmors.png</href></Icon><hotSpot x="7" y="28" xunits="pixels" yunits="insetPixels"/></IconStyle></Style><Point><coordinates>50.58433028141617,53.364036493119485</coordinates></Point></Placemark><Placemark><name><![CDATA[Страусиная ферма]]></name><description><![CDATA[Животноводческое хозяйство; </br><br/>Самарская область, Кинельский район, село Сырейка, улица Специалистов]]></description><Style><IconStyle><color>ff1e93ff</color><Icon><href>https://api-maps.yandex.ru/i/0.4/micro/pmors.png</href></Icon><hotSpot x="7" y="28" xunits="pixels" yunits="insetPixels"/></IconStyle></Style><Point><coordinates>50.519477,53.342558</coordinates></Point></Placemark><Placemark><name><![CDATA[Голубое озеро]]></name><description><![CDATA[Россия, Самарская область, Сергиевский район, озеро Голубое]]></description><Style><IconStyle><color>ff1e93ff</color><Icon><href>https://api-maps.yandex.ru/i/0.4/micro/pmors.png</href></Icon><hotSpot x="7" y="28" xunits="pixels" yunits="insetPixels"/></IconStyle></Style><Point><coordinates>51.487640999999996,53.912208</coordinates></Point></Placemark><Placemark><name><![CDATA[Водопад под воскресенкой]]></name><description><![CDATA[Россия, Самарская область, Клявлинский район, деревня Воскресенка]]></description><Style><IconStyle><color>ff1e93ff</color><Icon><href>https://api-maps.yandex.ru/i/0.4/micro/pmors.png</href></Icon><hotSpot x="7" y="28" xunits="pixels" yunits="insetPixels"/></IconStyle></Style><Point><coordinates>51.86714971169952,54.11648025299435</coordinates></Point></Placemark><Placemark><name><![CDATA[Токмаклинский водопад]]></name><description><![CDATA[Россия, Самарская область, Челно-Вершинский район]]></description><Style><IconStyle><color>ff1e93ff</color><Icon><href>https://api-maps.yandex.ru/i/0.4/micro/pmors.png</href></Icon><hotSpot x="7" y="28" xunits="pixels" yunits="insetPixels"/></IconStyle></Style><Point><coordinates>51.12321682638466,54.336586377762984</coordinates></Point></Placemark><Placemark><name><![CDATA[озеро Серное]]></name><description><![CDATA[Россия, Самарская область, Сергиевский район, озеро Серное]]></description><Style><IconStyle><color>ff1e93ff</color><Icon><href>https://api-maps.yandex.ru/i/0.4/micro/pmors.png</href></Icon><hotSpot x="7" y="28" xunits="pixels" yunits="insetPixels"/></IconStyle></Style><Point><coordinates>51.253913138899755,53.91845034003547</coordinates></Point></Placemark><Placemark><name><![CDATA[Всероссийский фестиваль авторской песни имени Валерия Грушина]]></name><description><![CDATA[Достопримечательность; </br><br/>Самарская область, Задельненский бор]]></description><Style><IconStyle><color>ff1e93ff</color><Icon><href>https://api-maps.yandex.ru/i/0.4/micro/pmors.png</href></Icon><hotSpot x="7" y="28" xunits="pixels" yunits="insetPixels"/></IconStyle></Style><Point><coordinates>49.912102,53.473311</coordinates></Point></Placemark><Placemark><name><![CDATA[Мастрюковская гора]]></name><description><![CDATA[Концертный зал; </br><br/>Самарская область, Задельненский бор]]></description><Style><IconStyle><color>ff1e93ff</color><Icon><href>https://api-maps.yandex.ru/i/0.4/micro/pmors.png</href></Icon><hotSpot x="7" y="28" xunits="pixels" yunits="insetPixels"/></IconStyle></Style><Point><coordinates>49.91231,53.473594</coordinates></Point></Placemark><Placemark><name><![CDATA[Ведьмино Озера]]></name><description/><Style><IconStyle><color>ff1e93ff</color><Icon><href>https://api-maps.yandex.ru/i/0.4/micro/pmors.png</href></Icon><hotSpot x="7" y="28" xunits="pixels" yunits="insetPixels"/></IconStyle></Style><Point><coordinates>49.640265313933845,53.3962091952976</coordinates></Point></Placemark><Placemark><name><![CDATA[Шведские дачи]]></name><description><![CDATA[Турбаза; </br><br/>Самара, Красноглинский район, экологическое поселение Дэй Гилберт]]></description><Style><IconStyle><color>ff03ad1b</color><Icon><href>https://api-maps.yandex.ru/i/0.4/micro/pmgns.png</href></Icon><hotSpot x="7" y="28" xunits="pixels" yunits="insetPixels"/></IconStyle></Style><Point><coordinates>50.096461,53.429873</coordinates></Point></Placemark><Placemark><name><![CDATA[Дубрава]]></name><description><![CDATA[Гостиница; </br><br/>Красноглинское ш., 40, Красноглинский район, посёлок Управленческий, Самара, Россия]]></description><Style><IconStyle><color>ff03ad1b</color><Icon><href>https://api-maps.yandex.ru/i/0.4/micro/pmgns.png</href></Icon><hotSpot x="7" y="28" xunits="pixels" yunits="insetPixels"/></IconStyle></Style><Point><coordinates>50.24488,53.350615</coordinates></Point></Placemark><Placemark><name><![CDATA[День-6]]></name><description/><Style><IconStyle><color>ffff981e</color><Icon><href>https://api-maps.yandex.ru/i/0.4/micro/pmbls.png</href></Icon><hotSpot x="7" y="28" xunits="pixels" yunits="insetPixels"/></IconStyle></Style><Point><coordinates>49.762623205272874,53.469980662672505</coordinates></Point></Placemark><Placemark><name><![CDATA[Гора Барсук]]></name><description/><Style><IconStyle><color>ff1e93ff</color><Icon><href>https://api-maps.yandex.ru/i/0.4/micro/pmors.png</href></Icon><hotSpot x="7" y="28" xunits="pixels" yunits="insetPixels"/></IconStyle></Style><Point><coordinates>50.19695400398246,53.32399786184223</coordinates></Point></Placemark><Placemark><name><![CDATA[Пещера Братьев Грейве]]></name><description><![CDATA[Россия, Самара, Красноглинский район]]></description><Style><IconStyle><color>ff1e93ff</color><Icon><href>https://api-maps.yandex.ru/i/0.4/micro/pmors.png</href></Icon><hotSpot x="7" y="28" xunits="pixels" yunits="insetPixels"/></IconStyle></Style><Point><coordinates>50.195054999999996,53.325456</coordinates></Point></Placemark><Placemark><name><![CDATA[Грейве развилка]]></name><description/><Style><IconStyle><color>ff1e93ff</color><Icon><href>https://api-maps.yandex.ru/i/0.4/micro/pmors.png</href></Icon><hotSpot x="7" y="28" xunits="pixels" yunits="insetPixels"/></IconStyle></Style><Point><coordinates>50.20564500936374,53.32717910255231</coordinates></Point></Placemark><Placemark><name><![CDATA[Церковь, купели]]></name><description/><Style><IconStyle><color>ff1e93ff</color><Icon><href>https://api-maps.yandex.ru/i/0.4/micro/pmors.png</href></Icon><hotSpot x="7" y="28" xunits="pixels" yunits="insetPixels"/></IconStyle></Style><Point><coordinates>50.11850540288916,53.42233058208313</coordinates></Point></Placemark><Placemark><name><![CDATA[Царёв Курган]]></name><description><![CDATA[Россия, Самарская область, Красноярский район, Царёв Курган]]></description><Style><IconStyle><color>ff1e93ff</color><Icon><href>https://api-maps.yandex.ru/i/0.4/micro/pmors.png</href></Icon><hotSpot x="7" y="28" xunits="pixels" yunits="insetPixels"/></IconStyle></Style><Point><coordinates>50.12187,53.421815</coordinates></Point></Placemark><Placemark><name><![CDATA[Крест]]></name><description/><Style><IconStyle><color>ff1e93ff</color><Icon><href>https://api-maps.yandex.ru/i/0.4/micro/pmors.png</href></Icon><hotSpot x="7" y="28" xunits="pixels" yunits="insetPixels"/></IconStyle></Style><Point><coordinates>50.123022242870235,53.42327906537495</coordinates></Point></Placemark><Placemark><name><![CDATA[День-7]]></name><description/><Style><IconStyle><color>ffff981e</color><Icon><href>https://api-maps.yandex.ru/i/0.4/micro/pmbls.png</href></Icon><hotSpot x="7" y="28" xunits="pixels" yunits="insetPixels"/></IconStyle></Style><Point><coordinates>50.11859123357763,53.42305476381582</coordinates></Point></Placemark><Placemark><name><![CDATA[Вертолётка?]]></name><description><![CDATA[Смотровая площадка; </br><br/>Самара, Ветвистая улица]]></description><Style><IconStyle><color>ffb3b3b3</color><Icon><href>https://api-maps.yandex.ru/i/0.4/micro/pmgrs.png</href></Icon><hotSpot x="7" y="28" xunits="pixels" yunits="insetPixels"/></IconStyle></Style><Point><coordinates>50.197481,53.343815</coordinates></Point></Placemark><Placemark><name><![CDATA[Падовский карьер]]></name><description><![CDATA[Россия, Самарская область, Пестравский район, Падовский карьер]]></description><Style><IconStyle><color>ffb3b3b3</color><Icon><href>https://api-maps.yandex.ru/i/0.4/micro/pmgrs.png</href></Icon><hotSpot x="7" y="28" xunits="pixels" yunits="insetPixels"/></IconStyle></Style><Point><coordinates>49.598688,52.46076</coordinates></Point></Placemark><Placemark><name><![CDATA[Тип Тяв 2]]></name><description><![CDATA[Россия, Самарская область, Жигулёвские ворота]]></description><Style><IconStyle><color>ffb3b3b3</color><Icon><href>https://api-maps.yandex.ru/i/0.4/micro/pmgrs.png</href></Icon><hotSpot x="7" y="28" xunits="pixels" yunits="insetPixels"/></IconStyle></Style><Point><coordinates>50.167717,53.401875</coordinates></Point></Placemark><Placemark><name><![CDATA[Тип Тяв]]></name><description/><Style><IconStyle><color>ffb3b3b3</color><Icon><href>https://api-maps.yandex.ru/i/0.4/micro/pmgrs.png</href></Icon><hotSpot x="7" y="28" xunits="pixels" yunits="insetPixels"/></IconStyle></Style><Point><coordinates>50.161397715560874,53.401951942009504</coordinates></Point></Placemark><Placemark><name><![CDATA[Жигулевское море??]]></name><description/><Style><IconStyle><color>ffb3b3b3</color><Icon><href>https://api-maps.yandex.ru/i/0.4/micro/pmgrs.png</href></Icon><hotSpot x="7" y="28" xunits="pixels" yunits="insetPixels"/></IconStyle></Style><Point><coordinates>49.296132991073065,53.393466305644324</coordinates></Point></Placemark><Placemark><name><![CDATA[Центр Исторического Моделирования Древний Мир]]></name><description><![CDATA[Экскурсии; </br><br/>Самарская область, Красноармейский район, село Каменный Брод]]></description><Style><IconStyle><color>ffb3b3b3</color><Icon><href>https://api-maps.yandex.ru/i/0.4/micro/pmgrs.png</href></Icon><hotSpot x="7" y="28" xunits="pixels" yunits="insetPixels"/></IconStyle></Style><Point><coordinates>49.990019,52.898347</coordinates></Point></Placemark><Placemark><name><![CDATA[Поволжский музей железнодорожной техники Куйбышевской железной дороги]]></name><description><![CDATA[Музей; </br><br/>ул. Литвинова, 332, лит.А, Самара, Россия]]></description><Style><IconStyle><color>ffb3b3b3</color><Icon><href>https://api-maps.yandex.ru/i/0.4/micro/pmgrs.png</href></Icon><hotSpot x="7" y="28" xunits="pixels" yunits="insetPixels"/></IconStyle></Style><Point><coordinates>50.295778,53.224501</coordinates></Point></Placemark><Placemark><name><![CDATA[Кемпинг Пискалы]]></name><description><![CDATA[Кемпинг; </br><br/>Самарская область, Задельненский бор<br/><br/>https://piskali.ru/]]></description><Style><IconStyle><color>ffb3b3b3</color><Icon><href>https://api-maps.yandex.ru/i/0.4/micro/pmgrs.png</href></Icon><hotSpot x="7" y="28" xunits="pixels" yunits="insetPixels"/></IconStyle></Style><Point><coordinates>49.762191,53.470207</coordinates></Point></Placemark><Placemark><name><![CDATA[Замок Гарибальди]]></name><description><![CDATA[Достопримечательность; </br><br/>Речной пер., 8, село Хрящёвка, Россия]]></description><Style><IconStyle><color>ffb3b3b3</color><Icon><href>https://api-maps.yandex.ru/i/0.4/micro/pmgrs.png</href></Icon><hotSpot x="7" y="28" xunits="pixels" yunits="insetPixels"/></IconStyle></Style><Point><coordinates>49.085635,53.821751</coordinates></Point></Placemark><Placemark><name><![CDATA[озеро Алексеевское]]></name><description><![CDATA[Россия, Самарская область, Волжский район, озеро Алексеевское]]></description><Style><IconStyle><color>ffb3b3b3</color><Icon><href>https://api-maps.yandex.ru/i/0.4/micro/pmgrs.png</href></Icon><hotSpot x="7" y="28" xunits="pixels" yunits="insetPixels"/></IconStyle></Style><Point><coordinates>50.487304,53.227344</coordinates></Point></Placemark><Placemark><name><![CDATA[озеро Утятник]]></name><description><![CDATA[Россия, Самарская область, Волжский район, озеро Утятник]]></description><Style><IconStyle><color>ffb3b3b3</color><Icon><href>https://api-maps.yandex.ru/i/0.4/micro/pmgrs.png</href></Icon><hotSpot x="7" y="28" xunits="pixels" yunits="insetPixels"/></IconStyle></Style><Point><coordinates>50.050103,53.506567</coordinates></Point></Placemark><Placemark><name><![CDATA[Альфа Глэмпинг]]></name><description><![CDATA[Кемпинг; </br><br/>Полевая ул., 47, село Подвалье, Россия<br/><br/>https://alphaglamping.ru/]]></description><Style><IconStyle><color>ffb3b3b3</color><Icon><href>https://api-maps.yandex.ru/i/0.4/micro/pmgrs.png</href></Icon><hotSpot x="7" y="28" xunits="pixels" yunits="insetPixels"/></IconStyle></Style><Point><coordinates>48.833539,53.694249</coordinates></Point></Placemark><Placemark><name><![CDATA[Подвальные терассы]]></name><description/><Style><IconStyle><color>ffb3b3b3</color><Icon><href>https://api-maps.yandex.ru/i/0.4/micro/pmgrs.png</href></Icon><hotSpot x="7" y="28" xunits="pixels" yunits="insetPixels"/></IconStyle></Style><Point><coordinates>48.84210061117541,53.70830605747483</coordinates></Point></Placemark><Placemark><name><![CDATA[Коптевский водопад]]></name><description><![CDATA[Водопад; </br><br/>Самара, Коптев овраг]]></description><Style><IconStyle><color>ffb3b3b3</color><Icon><href>https://api-maps.yandex.ru/i/0.4/micro/pmgrs.png</href></Icon><hotSpot x="7" y="28" xunits="pixels" yunits="insetPixels"/></IconStyle></Style><Point><coordinates>50.207388,53.337465</coordinates></Point></Placemark><Placemark><name><![CDATA[МАУК Парковый комплекс истории техники имени К. Г. Сахарова]]></name><description><![CDATA[Музей; </br><br/>Южное ш., 137, Тольятти, Россия]]></description><Style><IconStyle><color>ffb3b3b3</color><Icon><href>https://api-maps.yandex.ru/i/0.4/micro/pmgrs.png</href></Icon><hotSpot x="7" y="28" xunits="pixels" yunits="insetPixels"/></IconStyle></Style><Point><coordinates>49.249825,53.553089</coordinates></Point></Placemark><Placemark><name><![CDATA[Велоприют Кафе]]></name><description><![CDATA[Рабочая ул., 21А, село Подгоры, Россия<br/>https://velopriut.ru/]]></description><Style><IconStyle><color>ffb3b3b3</color><Icon><href>https://api-maps.yandex.ru/i/0.4/micro/pmgrs.png</href></Icon><hotSpot x="7" y="28" xunits="pixels" yunits="insetPixels"/></IconStyle></Style><Point><coordinates>50.10402653701694,53.316208567978386</coordinates></Point></Placemark><Placemark><name><![CDATA[Купель]]></name><description/><Style><IconStyle><color>ffb3b3b3</color><Icon><href>https://api-maps.yandex.ru/i/0.4/micro/pmgrs.png</href></Icon><hotSpot x="7" y="28" xunits="pixels" yunits="insetPixels"/></IconStyle></Style><Point><coordinates>50.093834142760834,53.325253729484594</coordinates></Point></Placemark><Placemark><name><![CDATA[КПП-1 Стрельная ]]></name><description/><Style><IconStyle><color>ff1ed2ff</color><Icon><href>https://api-maps.yandex.ru/i/0.4/micro/pmyws.png</href></Icon><hotSpot x="7" y="28" xunits="pixels" yunits="insetPixels"/></IconStyle></Style><Point><coordinates>49.787226402335364,53.43487703976893</coordinates></Point></Placemark></Folder></Document></kml>