<?xml version="1.0" encoding="UTF-8"?>
<kml xmlns="http://www.opengis.net/kml/2.2"><Document><ExtendedData><Data name="creator"><value><![CDATA[Yandex Map Constructor]]></value></Data></ExtendedData><name><![CDATA[бузулукский бор]]></name><description><![CDATA[https://npbuzbor.ru]]></description><Folder><Placemark><name><![CDATA[Холодные пруды (оз. Холерное)]]></name><description/><Style><IconStyle><color>ffff981e</color><Icon><href>https://api-maps.yandex.ru/i/0.4/micro/pmbls.png</href></Icon><hotSpot x="7" y="28" xunits="pixels" yunits="insetPixels"/></IconStyle></Style><Point><coordinates>52.171827667493375,53.04403719451373</coordinates></Point></Placemark><Placemark><name><![CDATA[Перекаты]]></name><description><![CDATA[Оренбургская область, Бузулукский район, Колтубановский поссовет]]></description><Style><IconStyle><color>ff4345ed</color><Icon><href>https://api-maps.yandex.ru/i/0.4/micro/pmrds.png</href></Icon><hotSpot x="7" y="28" xunits="pixels" yunits="insetPixels"/></IconStyle></Style><Point><coordinates>52.125711007792745,52.989039061701384</coordinates></Point></Placemark><Placemark><name><![CDATA[Начало тропы к Сосне]]></name><description/><Style><IconStyle><color>ff4345ed</color><Icon><href>https://api-maps.yandex.ru/i/0.4/micro/pmrds.png</href></Icon><hotSpot x="7" y="28" xunits="pixels" yunits="insetPixels"/></IconStyle></Style><Point><coordinates>52.132934925330844,53.02750195057182</coordinates></Point></Placemark><Placemark><name><![CDATA[Сосна Великан]]></name><description/><Style><IconStyle><color>ff4345ed</color><Icon><href>https://api-maps.yandex.ru/i/0.4/micro/pmrds.png</href></Icon><hotSpot x="7" y="28" xunits="pixels" yunits="insetPixels"/></IconStyle></Style><Point><coordinates>52.133621570838585,53.03125345368855</coordinates></Point></Placemark><Placemark><name><![CDATA[Паникинский Яр]]></name><description/><Style><IconStyle><color>ff4345ed</color><Icon><href>https://api-maps.yandex.ru/i/0.4/micro/pmrds.png</href></Icon><hotSpot x="7" y="28" xunits="pixels" yunits="insetPixels"/></IconStyle></Style><Point><coordinates>52.15160310007441,53.02985638049731</coordinates></Point></Placemark><Placemark><name><![CDATA[Озеро Студеное]]></name><description/><Style><IconStyle><color>ffff981e</color><Icon><href>https://api-maps.yandex.ru/i/0.4/micro/pmbls.png</href></Icon><hotSpot x="7" y="28" xunits="pixels" yunits="insetPixels"/></IconStyle></Style><Point><coordinates>52.14945,53.03284</coordinates></Point></Placemark><Placemark><name><![CDATA[Медвежий угол]]></name><description/><Style><IconStyle><color>ffff981e</color><Icon><href>https://api-maps.yandex.ru/i/0.4/micro/pmbls.png</href></Icon><hotSpot x="7" y="28" xunits="pixels" yunits="insetPixels"/></IconStyle></Style><Point><coordinates>52.06832938888505,52.95317218108394</coordinates></Point></Placemark><Placemark><name><![CDATA[Каменка]]></name><description/><Style><IconStyle><color>ffff981e</color><Icon><href>https://api-maps.yandex.ru/i/0.4/micro/pmbls.png</href></Icon><hotSpot x="7" y="28" xunits="pixels" yunits="insetPixels"/></IconStyle></Style><Point><coordinates>52.15249,53.03101</coordinates></Point></Placemark><Placemark><name><![CDATA[Озеро Моховое с плотами]]></name><description/><Style><IconStyle><color>ff4345ed</color><Icon><href>https://api-maps.yandex.ru/i/0.4/micro/pmrds.png</href></Icon><hotSpot x="7" y="28" xunits="pixels" yunits="insetPixels"/></IconStyle></Style><Point><coordinates>52.19958,53.10044</coordinates></Point></Placemark><Placemark><name><![CDATA[Дендросад]]></name><description/><Style><IconStyle><color>ff4345ed</color><Icon><href>https://api-maps.yandex.ru/i/0.4/micro/pmrds.png</href></Icon><hotSpot x="7" y="28" xunits="pixels" yunits="insetPixels"/></IconStyle></Style><Point><coordinates>52.100246,52.983178</coordinates></Point></Placemark><Placemark><name><![CDATA[Экопарк «Царь-бор»]]></name><description/><Style><IconStyle><color>ff4345ed</color><Icon><href>https://api-maps.yandex.ru/i/0.4/micro/pmrds.png</href></Icon><hotSpot x="7" y="28" xunits="pixels" yunits="insetPixels"/></IconStyle></Style><Point><coordinates>52.134797,53.028353</coordinates></Point></Placemark><Placemark><name><![CDATA[озеро Березовое]]></name><description/><Style><IconStyle><color>ffc97b17</color><Icon><href>https://api-maps.yandex.ru/i/0.4/micro/pmdbs.png</href></Icon><hotSpot x="7" y="28" xunits="pixels" yunits="insetPixels"/></IconStyle></Style><Point><coordinates>51.9476,52.94016</coordinates></Point></Placemark></Folder></Document></kml>